time_boot_ms,ms5607_pressure_mbar,ms5607_temperature_c,bmi323_accel_x,bmi323_accel_y,bmi323_accel_z,bmi323_gyro_x,bmi323_gyro_y,bmi323_gyro_z,adxl375_accel_x,adxl375_accel_y,adxl375_accel_z,bm1422_magn_x,bm1422_magn_y,bm1422_magn_z,gps_lat,gps_lng,gps_alt,gps_speed,gps_course,gps_num_sats
14773088,982.210022,20.480000,-0.079853,-0.055311,1.015629,0.000000,0.000000,0.121951,0.000000,0.441000,2.058000,-43.931999,-31.542000,-92.147995,39.7285309,-83.7083282,320.000,44.000,7613,7
14773096,982.210022,20.480000,-0.079243,-0.053236,1.015873,-0.060976,0.000000,0.060976,0.049000,0.490000,2.058000,-43.931999,-31.542000,-92.147995,39.7285309,-83.7083282,320.000,44.000,7613,7
14773104,982.210022,20.480000,-0.078266,-0.051648,1.015140,0.000000,0.000000,-0.121951,0.000000,0.392000,2.058000,-43.722000,-31.500000,-91.769997,39.7285309,-83.7083282,320.000,44.000,7613,7
14773113,982.210022,20.480000,-0.078266,-0.050427,1.014896,0.000000,-0.060976,-0.182927,0.049000,0.441000,2.058000,-43.848000,-31.500000,-92.021996,39.7285309,-83.7083282,320.000,44.000,7613,7
14773123,982.200012,20.469999,-0.076801,-0.051038,1.014652,-0.060976,0.000000,-0.182927,0.049000,0.441000,2.009000,-43.889999,-31.625999,-92.190002,39.7285309,-83.7083282,320.000,44.000,7613,7
14773133,982.200012,20.469999,-0.075580,-0.052747,1.014530,-0.060976,0.000000,-0.060976,0.000000,0.490000,2.009000,-43.722000,-31.500000,-91.979996,39.7285309,-83.7083282,320.000,44.000,7613,7
14773143,982.200012,20.469999,-0.076923,-0.053358,1.015140,-0.121951,0.000000,0.060976,0.000000,0.490000,2.107000,-43.889999,-31.542000,-92.105995,39.7285309,-83.7083282,320.000,44.000,7613,7
14773153,982.200012,20.469999,-0.078755,-0.054701,1.015629,-0.060976,0.000000,0.182927,0.000000,0.490000,2.058000,-43.806000,-31.625999,-92.021996,39.7285309,-83.7083282,320.000,44.000,7613,7
14773163,982.239990,20.480000,-0.078877,-0.057753,1.015385,-0.121951,0.000000,0.243902,0.000000,0.441000,2.058000,-44.015999,-31.584000,-91.979996,39.7285309,-83.7083282,320.000,44.000,7613,7
14773173,982.239990,20.480000,-0.078388,-0.060073,1.015751,-0.121951,0.060976,0.121951,0.000000,0.539000,2.009000,-43.722000,-31.500000,-91.895996,39.7285309,-83.7083282,320.000,44.000,7613,7
14773183,982.239990,20.480000,-0.079609,-0.060073,1.016361,-0.121951,0.060976,0.000000,0.000000,0.441000,2.009000,-43.889999,-31.416000,-92.147995,39.7285309,-83.7083282,320.000,44.000,7613,7
14773193,982.239990,20.480000,-0.079243,-0.060684,1.015140,-0.121951,0.000000,-0.182927,0.000000,0.490000,2.058000,-43.889999,-31.584000,-92.063995,39.7285309,-83.7083282,320.000,44.000,7613,7
14773203,982.239990,20.480000,-0.078266,-0.061416,1.015995,-0.060976,0.000000,-0.304878,0.000000,0.441000,2.058000,-43.680000,-31.500000,-91.979996,39.7285309,-83.7083282,320.000,44.000,7613,7
14773213,982.239990,20.480000,-0.078388,-0.059707,1.016484,0.000000,0.000000,-0.304878,0.000000,0.490000,2.058000,-43.722000,-31.289999,-91.895996,39.7285309,-83.7083282,320.000,44.000,7613,7
14773223,982.239990,20.480000,-0.079243,-0.059219,1.014774,0.000000,0.000000,-0.243902,0.000000,0.539000,2.009000,-43.596001,-31.542000,-92.021996,39.7285309,-83.7083282,320.000,44.000,7613,7
14773233,982.239990,20.480000,-0.078877,-0.058364,1.014774,0.000000,0.000000,-0.060976,0.049000,0.441000,2.107000,-43.889999,-31.458000,-91.979996,39.7285309,-83.7083282,320.000,44.000,7613,7
14773243,982.219971,20.480000,-0.078632,-0.055433,1.015018,0.000000,0.000000,0.060976,0.049000,0.441000,2.058000,-43.764000,-31.416000,-91.853996,39.7285309,-83.7083282,320.000,44.000,7613,7
14773253,982.219971,20.480000,-0.078632,-0.052381,1.016239,-0.060976,0.000000,0.182927,0.000000,0.539000,2.009000,-43.638000,-31.331999,-91.643997,39.7285309,-83.7083282,320.000,44.000,7613,7
14773263,982.219971,20.480000,-0.078755,-0.049817,1.015140,-0.060976,-0.060976,0.243902,0.049000,0.441000,2.058000,-43.764000,-31.416000,-92.274002,39.7285309,-83.7083282,320.000,44.000,7613,7
14773273,982.219971,20.480000,-0.080464,-0.048718,1.015507,-0.060976,0.000000,0.243902,0.098000,0.392000,2.009000,-43.806000,-31.584000,-91.895996,39.7285309,-83.7083282,320.000,44.000,7613,7
14773283,982.159973,20.480000,-0.081197,-0.049695,1.015995,-0.060976,-0.060976,0.182927,0.000000,0.490000,2.107000,-43.848000,-31.458000,-91.979996,39.7285309,-83.7083282,320.000,44.000,7613,7
14773293,982.159973,20.480000,-0.080464,-0.051282,1.015629,-0.121951,-0.060976,0.000000,0.049000,0.392000,2.107000,-43.680000,-31.373999,-92.021996,39.7285309,-83.7083282,320.000,44.000,7613,7
14773303,982.159973,20.480000,-0.079609,-0.053480,1.016484,-0.060976,0.000000,-0.121951,0.049000,0.539000,2.107000,-43.806000,-31.751999,-91.937996,39.7285309,-83.7083282,320.000,44.000,7613,7
14773313,982.159973,20.480000,-0.079487,-0.056654,1.016117,-0.121951,-0.060976,-0.121951,0.049000,0.490000,2.156000,-43.889999,-31.584000,-91.979996,39.7285309,-83.7083282,320.000,44.000,7613,7
14773323,982.200012,20.480000,-0.078632,-0.059096,1.016117,-0.182927,-0.060976,-0.060976,0.000000,0.392000,2.058000,-43.722000,-31.584000,-92.063995,39.7285309,-83.7083282,320.000,44.000,7613,7
14773333,982.200012,20.480000,-0.078755,-0.060317,1.015873,-0.121951,0.000000,0.060976,0.049000,0.490000,2.058000,-43.680000,-31.416000,-92.147995,39.7285309,-83.7083282,320.000,44.000,7613,7
14773343,982.200012,20.480000,-0.079609,-0.061172,1.015507,-0.060976,-0.060976,0.182927,0.000000,0.392000,2.156000,-43.889999,-31.542000,-92.021996,39.7285309,-83.7083282,320.000,44.000,7613,7
14773353,982.200012,20.480000,-0.080708,-0.061661,1.015507,-0.121951,-0.060976,0.182927,0.000000,0.490000,2.107000,-43.722000,-31.625999,-91.979996,39.7285309,-83.7083282,320.000,44.000,7613,7
14773363,982.210022,20.480000,-0.080952,-0.061050,1.015262,-0.121951,-0.121951,0.121951,0.049000,0.490000,2.058000,-43.806000,-31.751999,-92.105995,39.7285309,-83.7083282,320.000,44.000,7613,7
14773373,982.210022,20.480000,-0.080952,-0.059096,1.015140,-0.060976,-0.060976,0.000000,0.049000,0.490000,2.009000,-43.931999,-31.542000,-92.021996,39.7285309,-83.7083282,320.000,44.000,7613,7
14773383,982.210022,20.480000,-0.081807,-0.057143,1.015873,-0.060976,-0.121951,-0.182927,0.049000,0.392000,2.058000,-43.806000,-31.667999,-92.147995,39.7285309,-83.7083282,320.000,44.000,7613,7
14773393,982.210022,20.480000,-0.082418,-0.055678,1.015873,-0.060976,-0.121951,-0.243902,0.049000,0.441000,2.058000,-43.848000,-31.625999,-92.063995,39.7285309,-83.7083282,320.000,44.000,7613,7
14773403,982.219971,20.480000,-0.081685,-0.052869,1.015018,-0.060976,-0.121951,-0.243902,0.049000,0.490000,2.058000,-43.722000,-31.542000,-92.063995,39.7285309,-83.7083282,320.000,44.000,7613,7
14773413,982.219971,20.480000,-0.081074,-0.051648,1.015140,-0.060976,-0.121951,-0.060976,0.000000,0.392000,2.107000,-43.722000,-31.542000,-92.063995,39.7285309,-83.7083282,320.000,44.000,7613,7
14773423,982.219971,20.480000,-0.081685,-0.052503,1.014896,-0.121951,-0.121951,0.182927,0.000000,0.490000,2.058000,-43.889999,-31.625999,-92.021996,39.7285309,-83.7083282,320.000,44.000,7613,7
14773433,982.219971,20.480000,-0.081441,-0.053358,1.014530,-0.121951,-0.121951,0.365854,0.000000,0.490000,2.009000,-43.931999,-31.331999,-92.105995,39.7285309,-83.7083282,320.000,44.000,7613,7
14773443,982.179993,20.480000,-0.081685,-0.052503,1.015140,-0.121951,-0.121951,0.426829,0.000000,0.441000,2.058000,-43.806000,-31.500000,-92.190002,39.7285309,-83.7083282,320.000,44.000,7613,7
14773453,982.179993,20.480000,-0.080952,-0.053968,1.015385,-0.182927,-0.121951,0.426829,0.000000,0.441000,2.009000,-43.848000,-31.542000,-92.021996,39.7285309,-83.7083282,320.000,44.000,7613,7
14773463,982.179993,20.480000,-0.080708,-0.055922,1.014896,-0.121951,-0.182927,0.304878,0.049000,0.441000,2.058000,-43.931999,-31.542000,-92.190002,39.7285309,-83.7083282,320.000,44.000,7613,7
14773473,982.179993,20.480000,-0.080708,-0.058608,1.014652,-0.060976,-0.182927,0.121951,0.000000,0.490000,2.058000,-43.931999,-31.793999,-92.147995,39.7285309,-83.7083282,320.000,17.000,7613,7
14773483,982.200012,20.480000,-0.079243,-0.060806,1.015507,-0.121951,-0.182927,0.060976,0.000000,0.490000,2.107000,-43.806000,-31.500000,-91.979996,39.7285309,-83.7083282,320.000,17.000,7613,7
14773502,982.200012,20.480000,-0.079243,-0.065934,1.016239,-0.060976,-0.182927,0.000000,0.049000,0.490000,2.009000,-43.973999,-31.584000,-92.021996,39.7285309,-83.7083282,320.000,17.000,7613,7
14773512,982.200012,20.480000,-0.079121,-0.064713,1.016361,-0.121951,-0.121951,0.121951,0.049000,0.441000,2.058000,-43.806000,-31.458000,-92.021996,39.7285309,-83.7083282,320.000,17.000,7613,7
14773520,982.239990,20.469999,-0.079121,-0.064713,1.016361,-0.121951,-0.121951,0.121951,0.000000,0.490000,2.107000,-43.848000,-31.458000,-92.063995,39.7285309,-83.7083282,320.000,17.000,7613,7
14773528,982.239990,20.469999,-0.079731,-0.063492,1.015262,-0.060976,-0.182927,0.304878,0.000000,0.441000,2.058000,-43.848000,-31.584000,-92.021996,39.7285309,-83.7083282,320.000,17.000,7613,7
14773536,982.239990,20.469999,-0.079976,-0.061172,1.014652,-0.060976,-0.182927,0.304878,0.000000,0.490000,2.058000,-43.848000,-31.584000,-92.021996,39.7285309,-83.7083282,320.000,17.000,7613,7
14773544,982.239990,20.469999,-0.079731,-0.057753,1.014408,-0.060976,-0.182927,0.243902,0.049000,0.490000,2.058000,-43.722000,-31.500000,-91.769997,39.7285309,-83.7083282,320.000,17.000,7613,7
14773555,982.190002,20.480000,-0.080220,-0.055311,1.014164,-0.060976,-0.243902,0.121951,0.049000,0.539000,2.009000,-43.931999,-31.416000,-92.021996,39.7285309,-83.7083282,320.000,17.000,7613,7
14773563,982.190002,20.480000,-0.080830,-0.054823,1.013431,0.000000,-0.182927,0.000000,0.000000,0.441000,2.058000,-43.889999,-31.667999,-92.063995,39.7285309,-83.7083282,320.000,17.000,7613,7
14773573,982.190002,20.480000,-0.080708,-0.054457,1.013675,-0.060976,-0.182927,-0.121951,0.000000,0.490000,2.107000,-43.889999,-31.584000,-92.063995,39.7285309,-83.7083282,320.000,17.000,7613,7
14773583,982.190002,20.480000,-0.080586,-0.052869,1.014164,-0.060976,-0.182927,-0.121951,0.049000,0.539000,2.009000,-44.015999,-31.416000,-92.063995,39.7285309,-83.7083282,319.700,17.000,7613,7
14773593,982.200012,20.490000,-0.080952,-0.054090,1.016239,-0.060976,-0.182927,0.000000,0.000000,0.441000,2.107000,-44.099998,-31.584000,-92.190002,39.7285309,-83.7083282,319.700,17.000,7613,7
14773603,982.200012,20.490000,-0.080220,-0.056654,1.016239,-0.060976,-0.243902,0.182927,0.049000,0.441000,2.058000,-43.848000,-31.667999,-91.895996,39.7285309,-83.7083282,319.700,17.000,7613,7
14773613,982.200012,20.490000,-0.079853,-0.059585,1.016239,-0.060976,-0.243902,0.426829,0.000000,0.490000,2.107000,-43.889999,-31.542000,-91.937996,39.7285309,-83.7083282,319.700,17.000,7613,7
14773623,982.200012,20.490000,-0.079365,-0.060806,1.016239,-0.060976,-0.243902,0.609756,0.000000,0.392000,2.107000,-43.722000,-31.625999,-92.147995,39.7285309,-83.7083282,319.700,17.000,7613,7
14773633,982.190002,20.490000,-0.079365,-0.060562,1.015262,-0.060976,-0.243902,0.609756,0.000000,0.441000,2.156000,-43.806000,-31.500000,-92.232002,39.7285309,-83.7083282,319.700,17.000,7613,7
14773643,982.190002,20.490000,-0.079365,-0.060562,1.015507,-0.121951,-0.304878,0.487805,0.000000,0.441000,2.058000,-43.764000,-31.667999,-92.190002,39.7285309,-83.7083282,319.700,17.000,7613,7
14773653,982.190002,20.490000,-0.078388,-0.061050,1.015629,-0.121951,-0.304878,0.365854,0.000000,0.441000,2.058000,-43.889999,-31.667999,-92.147995,39.7285309,-83.7083282,319.700,17.000,7613,7
14773663,982.190002,20.490000,-0.078999,-0.060928,1.015629,-0.060976,-0.243902,0.304878,0.000000,0.539000,2.058000,-43.764000,-31.373999,-92.232002,39.7285309,-83.7083282,319.700,17.000,7613,7
14773673,982.210022,20.490000,-0.078144,-0.061050,1.014896,0.000000,-0.243902,0.182927,0.049000,0.490000,2.009000,-43.931999,-31.878000,-92.021996,39.7285309,-83.7083282,319.700,17.000,7613,7
14773683,982.210022,20.490000,-0.077778,-0.059951,1.015018,0.000000,-0.304878,0.182927,0.000000,0.490000,2.107000,-43.806000,-31.667999,-92.105995,39.7285309,-83.7083282,319.700,17.000,7613,7
14773693,982.210022,20.490000,-0.077289,-0.057021,1.016117,0.000000,-0.304878,0.182927,0.000000,0.490000,2.058000,-43.806000,-31.542000,-92.105995,39.7285309,-83.7083282,319.700,17.000,7613,7
14773703,982.210022,20.490000,-0.075824,-0.054212,1.015751,0.000000,-0.243902,0.182927,0.049000,0.441000,2.058000,-43.764000,-31.625999,-91.937996,39.7285309,-83.7083282,319.700,17.000,7613,7
14773713,982.179993,20.490000,-0.076679,-0.052015,1.015629,0.000000,-0.243902,0.121951,0.000000,0.490000,2.058000,-43.848000,-31.331999,-91.895996,39.7285309,-83.7083282,319.700,17.000,7613,7
14773723,982.179993,20.490000,-0.076679,-0.051526,1.015873,-0.060976,-0.304878,0.121951,0.000000,0.490000,2.058000,-43.931999,-31.542000,-91.601997,39.7285309,-83.7083282,319.700,17.000,7613,7
14773733,982.179993,20.490000,-0.077411,-0.052381,1.015751,-0.060976,-0.243902,0.121951,0.000000,0.490000,2.107000,-43.848000,-31.458000,-91.937996,39.7285309,-83.7083282,319.700,17.000,7613,7
14773743,982.179993,20.490000,-0.077534,-0.053846,1.014896,-0.060976,-0.243902,0.121951,0.049000,0.490000,2.058000,-43.764000,-31.667999,-91.979996,39.7285309,-83.7083282,319.700,17.000,7613,7
14773753,982.190002,20.480000,-0.077534,-0.056410,1.015262,-0.060976,-0.243902,0.121951,0.049000,0.441000,2.009000,-43.848000,-31.625999,-91.811996,39.7285309,-83.7083282,319.700,17.000,7613,7
14773763,982.190002,20.480000,-0.077656,-0.056654,1.015629,-0.060976,-0.243902,0.182927,0.000000,0.490000,2.107000,-43.722000,-31.920000,-91.895996,39.7285309,-83.7083282,319.700,17.000,7613,7
14773773,982.190002,20.480000,-0.076435,-0.059219,1.015262,-0.060976,-0.182927,0.182927,0.049000,0.441000,2.107000,-43.806000,-31.625999,-91.937996,39.7285309,-83.7083282,319.700,17.000,7613,7
14773783,982.190002,20.480000,-0.076190,-0.060562,1.015385,-0.060976,-0.182927,0.243902,0.000000,0.441000,2.156000,-43.764000,-31.542000,-91.895996,39.7285309,-83.7083282,319.700,17.000,7613,7
14773793,982.219971,20.480000,-0.075946,-0.061416,1.014896,0.000000,-0.182927,0.182927,0.000000,0.490000,2.058000,-43.806000,-31.458000,-92.105995,39.7285309,-83.7083282,319.700,17.000,7613,7
14773803,982.219971,20.480000,-0.075702,-0.062882,1.014774,-0.060976,-0.182927,0.182927,0.000000,0.392000,2.058000,-43.889999,-31.584000,-91.937996,39.7285309,-83.7083282,319.700,17.000,7613,7
14773813,982.219971,20.480000,-0.075092,-0.062271,1.015140,0.000000,-0.243902,0.243902,0.000000,0.490000,2.058000,-43.848000,-31.584000,-92.147995,39.7285309,-83.7083282,319.700,17.000,7613,7
14773823,982.219971,20.480000,-0.075092,-0.061172,1.016484,0.060976,-0.182927,0.304878,0.000000,0.441000,2.058000,-44.099998,-31.625999,-92.105995,39.7285309,-83.7083282,319.700,17.000,7613,7
14773833,982.219971,20.480000,-0.074969,-0.060317,1.016972,0.060976,-0.182927,0.365854,0.049000,0.343000,2.009000,-43.806000,-31.751999,-92.105995,39.7285309,-83.7083282,319.700,17.000,7613,7
14773843,982.219971,20.480000,-0.074847,-0.057509,1.016728,0.000000,-0.243902,0.548781,0.000000,0.392000,2.009000,-43.931999,-31.458000,-92.063995,39.7285309,-83.7083282,319.700,17.000,7613,7
14773853,982.219971,20.480000,-0.074481,-0.055433,1.015995,0.000000,-0.243902,0.548781,0.000000,0.490000,2.058000,-43.889999,-31.751999,-92.021996,39.7285309,-83.7083282,319.700,17.000,7613,7
14773863,982.219971,20.480000,-0.074725,-0.053602,1.015385,0.060976,-0.182927,0.487805,0.000000,0.441000,2.107000,-43.806000,-31.584000,-92.105995,39.7285309,-83.7083282,319.700,17.000,7613,7
14773873,982.210022,20.480000,-0.074603,-0.049939,1.015385,0.000000,-0.182927,0.304878,0.049000,0.441000,2.009000,-44.099998,-31.836000,-92.147995,39.7285309,-83.7083282,319.700,17.000,7613,7
14773883,982.210022,20.480000,-0.074725,-0.048107,1.015018,0.000000,-0.182927,0.060976,0.000000,0.539000,2.009000,-43.722000,-31.667999,-91.979996,39.7285309,-83.7083282,319.700,17.000,7613,7
14773893,982.210022,20.480000,-0.074359,-0.049084,1.014408,-0.060976,-0.182927,-0.182927,0.000000,0.441000,2.107000,-43.764000,-31.542000,-92.063995,39.7285309,-83.7083282,319.700,17.000,7613,7
14773903,982.210022,20.480000,-0.073748,-0.051282,1.014652,-0.060976,-0.121951,-0.304878,0.000000,0.490000,2.058000,-43.931999,-31.751999,-91.937996,39.7285309,-83.7083282,319.700,17.000,7613,7
14773913,982.169983,20.480000,-0.074359,-0.054335,1.015262,-0.060976,-0.060976,-0.243902,0.049000,0.441000,2.156000,-43.806000,-31.584000,-91.979996,39.7285309,-83.7083282,319.700,17.000,7613,7
14773923,982.169983,20.480000,-0.074115,-0.056899,1.015873,-0.060976,-0.121951,-0.121951,0.049000,0.490000,2.058000,-43.889999,-31.289999,-91.937996,39.7285309,-83.7083282,319.700,17.000,7613,7
14773942,982.169983,20.480000,-0.075580,-0.058364,1.016850,-0.121951,-0.060976,0.304878,0.000000,0.441000,1.960000,-43.722000,-31.584000,-92.063995,39.7285309,-83.7083282,319.700,17.000,7613,7
14773951,982.169983,20.480000,-0.075458,-0.056654,1.016606,-0.121951,-0.060976,0.365854,0.000000,0.441000,2.107000,-43.931999,-31.584000,-91.895996,39.7285309,-83.7083282,319.700,17.000,7613,7
14773959,982.200012,20.480000,-0.075458,-0.056654,1.016606,-0.121951,-0.060976,0.365854,0.000000,0.490000,2.107000,-43.931999,-31.584000,-91.895996,39.7285309,-83.7083282,319.700,17.000,7613,7
14773967,982.200012,20.480000,-0.075458,-0.055067,1.015751,-0.121951,-0.121951,0.304878,0.000000,0.490000,2.107000,-43.764000,-31.793999,-91.895996,39.7285309,-83.7083282,319.700,17.000,7613,7
14773975,982.200012,20.480000,-0.075824,-0.055556,1.014896,-0.121951,-0.121951,0.060976,0.098000,0.343000,2.156000,-43.680000,-31.584000,-91.979996,39.7285309,-83.7083282,319.700,17.000,7613,7
14773985,982.200012,20.480000,-0.075946,-0.056166,1.015629,-0.121951,-0.060976,-0.060976,0.049000,0.441000,2.058000,-43.806000,-31.667999,-92.232002,39.7285309,-83.7083282,319.700,17.000,7613,7
14773993,982.210022,20.469999,-0.075458,-0.057021,1.015385,-0.121951,-0.060976,-0.182927,0.000000,0.490000,2.009000,-44.099998,-31.458000,-92.105995,39.7285309,-83.7083282,319.700,17.000,7613,7
14774003,982.210022,20.469999,-0.074725,-0.055922,1.015629,-0.121951,-0.121951,-0.182927,0.049000,0.490000,2.107000,-43.806000,-31.667999,-92.063995,39.7285309,-83.7083282,319.700,17.000,7613,7
14774013,982.210022,20.469999,-0.074481,-0.055311,1.015507,-0.060976,-0.121951,-0.060976,0.000000,0.441000,2.058000,-44.141998,-31.625999,-92.232002,39.7285309,-83.7083282,319.700,17.000,7613,7
14774023,982.210022,20.469999,-0.073382,-0.055311,1.015751,-0.060976,-0.121951,0.121951,0.049000,0.490000,2.009000,-43.848000,-31.584000,-91.937996,39.7285309,-83.7083282,319.700,17.000,7613,7
14774033,982.219971,20.480000,-0.073138,-0.053968,1.015385,-0.121951,0.000000,0.243902,0.000000,0.490000,2.058000,-44.015999,-31.500000,-92.021996,39.7285309,-83.7083282,319.700,17.000,7613,7
14774043,982.219971,20.480000,-0.073626,-0.053846,1.014408,-0.182927,0.000000,0.304878,0.049000,0.490000,2.058000,-43.889999,-31.500000,-92.147995,39.7285309,-83.7083282,319.700,17.000,7613,7
14774053,982.219971,20.480000,-0.074481,-0.055556,1.015629,-0.243902,0.060976,0.182927,0.000000,0.441000,1.960000,-43.848000,-31.584000,-92.190002,39.7285309,-83.7083282,319.700,17.000,7613,7
14774063,982.219971,20.480000,-0.075336,-0.056410,1.016850,-0.182927,0.000000,0.000000,0.000000,0.441000,2.009000,-43.764000,-31.793999,-91.979996,39.7285309,-83.7083282,319.700,17.000,7613,7
14774073,982.229980,20.480000,-0.075824,-0.057631,1.016484,-0.182927,0.060976,-0.182927,-0.049000,0.490000,2.009000,-43.764000,-31.542000,-91.979996,39.7285309,-83.7083282,319.700,17.000,7613,7
14774083,982.229980,20.480000,-0.074847,-0.060684,1.014774,-0.182927,0.060976,-0.304878,0.000000,0.539000,2.058000,-43.931999,-31.667999,-92.147995,39.7285309,-83.7083282,319.700,17.000,7613,7
14774093,982.229980,20.480000,-0.074847,-0.063004,1.015018,-0.121951,0.060976,-0.365854,0.000000,0.441000,2.107000,-43.764000,-31.667999,-91.937996,39.7285309,-83.7083282,319.700,17.000,7613,7
14774103,982.229980,20.480000,-0.075214,-0.064103,1.015873,-0.060976,0.060976,-0.304878,0.000000,0.490000,2.107000,-43.931999,-31.751999,-92.105995,39.7285309,-83.7083282,319.700,17.000,7613,7
14774113,982.169983,20.480000,-0.075336,-0.065568,1.015873,-0.060976,0.121951,-0.243902,0.049000,0.392000,2.058000,-43.848000,-31.751999,-91.937996,39.7285309,-83.7083282,319.700,17.000,7613,7
14774123,982.169983,20.480000,-0.075214,-0.065201,1.016484,-0.121951,0.121951,-0.182927,0.049000,0.392000,2.156000,-43.973999,-31.542000,-92.063995,39.7285309,-83.7083282,319.700,17.000,7613,7
14774133,982.169983,20.480000,-0.074847,-0.063004,1.016117,-0.060976,0.121951,-0.060976,0.049000,0.441000,2.107000,-43.848000,-31.625999,-92.021996,39.7285309,-83.7083282,319.700,17.000,7613,7
14774143,982.169983,20.480000,-0.075214,-0.060562,1.014652,-0.060976,0.121951,0.000000,0.049000,0.441000,2.156000,-43.848000,-31.625999,-92.105995,39.7285309,-83.7083282,319.700,17.000,7613,7
14774153,982.210022,20.480000,-0.076435,-0.057875,1.015507,0.000000,0.060976,0.060976,0.049000,0.539000,2.009000,-43.931999,-31.751999,-92.021996,39.7285309,-83.7083282,319.700,17.000,7613,7
14774163,982.210022,20.480000,-0.077411,-0.056044,1.016239,0.060976,0.060976,0.060976,0.000000,0.539000,2.058000,-44.099998,-31.667999,-91.895996,39.7285309,-83.7083282,319.700,17.000,7613,7
14774173,982.210022,20.480000,-0.078266,-0.054701,1.016117,0.000000,0.121951,0.000000,0.000000,0.588000,2.107000,-43.889999,-31.667999,-91.895996,39.7285309,-83.7083282,319.700,17.000,7613,7
14774183,982.210022,20.480000,-0.078388,-0.053846,1.016361,0.000000,0.121951,-0.060976,0.000000,0.441000,2.156000,-43.889999,-31.373999,-91.979996,39.7285309,-83.7083282,319.700,17.000,7613,7
14774193,982.210022,20.480000,-0.078877,-0.053114,1.016361,-0.060976,0.182927,-0.121951,0.049000,0.490000,2.009000,-43.848000,-31.751999,-92.021996,39.7285309,-83.7083282,319.700,17.000,7613,7
14774203,982.210022,20.480000,-0.078266,-0.052869,1.015262,-0.060976,0.182927,-0.060976,0.049000,0.490000,2.058000,-43.931999,-31.500000,-91.979996,39.7285309,-83.7083282,319.700,17.000,7613,7
14774213,982.210022,20.480000,-0.077778,-0.053236,1.015018,-0.060976,0.121951,-0.060976,0.000000,0.441000,2.058000,-43.638000,-31.500000,-92.105995,39.7285309,-83.7083282,319.700,17.000,7613,7
14774223,982.210022,20.480000,-0.076557,-0.055556,1.014652,-0.060976,0.121951,0.000000,0.049000,0.441000,2.009000,-43.680000,-31.373999,-91.559998,39.7285309,-83.7083282,319.700,17.000,7613,7
14774233,982.200012,20.469999,-0.077289,-0.057143,1.015018,-0.060976,0.121951,0.060976,0.098000,0.441000,2.058000,-43.722000,-31.331999,-91.895996,39.7285309,-83.7083282,319.700,17.000,7613,7
14774243,982.200012,20.469999,-0.077778,-0.057265,1.014774,-0.060976,0.121951,0.000000,0.049000,0.490000,2.058000,-43.764000,-31.416000,-92.232002,39.7285309,-83.7083282,319.700,17.000,7613,7
14774253,982.200012,20.469999,-0.078144,-0.057753,1.015385,-0.121951,0.121951,-0.060976,0.000000,0.441000,2.107000,-43.848000,-31.542000,-91.979996,39.7285309,-83.7083282,319.700,17.000,7613,7
14774263,982.200012,20.469999,-0.079121,-0.058974,1.016850,0.000000,0.121951,-0.121951,0.000000,0.490000,2.107000,-43.596001,-31.458000,-91.979996,39.7285309,-83.7083282,319.700,17.000,7613,7
14774273,982.190002,20.469999,-0.079121,-0.058730,1.016850,0.060976,0.060976,-0.304878,0.049000,0.441000,2.058000,-43.848000,-31.584000,-91.937996,39.7285309,-83.7083282,319.700,17.000,7613,7
14774283,982.190002,20.469999,-0.079243,-0.058364,1.016850,0.060976,0.121951,-0.365854,0.000000,0.441000,2.107000,-43.806000,-31.667999,-91.601997,39.7285309,-83.7083282,319.700,17.000,7613,7
14774293,982.190002,20.469999,-0.079609,-0.057998,1.015873,0.000000,0.121951,-0.426829,0.049000,0.441000,2.058000,-43.806000,-31.584000,-92.063995,39.7285309,-83.7083282,319.700,17.000,7613,7
14774303,982.190002,20.469999,-0.079243,-0.057631,1.015629,0.000000,0.121951,-0.426829,0.000000,0.539000,2.058000,-43.806000,-31.751999,-92.021996,39.7285309,-83.7083282,319.700,17.000,7613,7
14774313,982.179993,20.480000,-0.078632,-0.057631,1.015140,0.060976,0.121951,-0.365854,0.000000,0.490000,2.058000,-43.889999,-31.584000,-92.105995,39.7285309,-83.7083282,319.700,17.000,7613,7
14774323,982.179993,20.480000,-0.079365,-0.056410,1.014896,0.000000,0.060976,-0.243902,0.000000,0.441000,2.058000,-43.764000,-31.625999,-92.274002,39.7285309,-83.7083282,319.700,17.000,7613,7
14774333,982.179993,20.480000,-0.080342,-0.055678,1.014774,-0.060976,0.060976,0.000000,0.000000,0.490000,2.058000,-43.889999,-31.584000,-92.021996,39.7285309,-83.7083282,319.700,17.000,7613,7
14774343,982.179993,20.480000,-0.080220,-0.055678,1.014896,-0.060976,0.060976,0.121951,0.000000,0.490000,2.009000,-43.848000,-31.584000,-92.021996,39.7285309,-83.7083282,319.700,17.000,7613,7
14774353,982.190002,20.480000,-0.081807,-0.055311,1.014896,-0.060976,0.121951,0.182927,0.098000,0.441000,2.058000,-43.931999,-31.625999,-91.937996,39.7285309,-83.7083282,319.700,17.000,7613,7
14774372,982.190002,20.480000,-0.084127,-0.055311,1.016361,-0.121951,0.060976,0.121951,0.000000,0.441000,2.009000,-43.722000,-31.584000,-91.853996,39.7285309,-83.7083282,319.700,17.000,7613,7
14774380,982.190002,20.480000,-0.082662,-0.056777,1.015995,-0.060976,0.060976,0.060976,0.000000,0.539000,2.107000,-43.722000,-31.584000,-91.853996,39.7285309,-83.7083282,319.700,17.000,7613,7
14774389,982.200012,20.480000,-0.082662,-0.056777,1.015995,-0.060976,0.060976,0.060976,0.000000,0.490000,2.156000,-43.764000,-31.416000,-92.021996,39.7285309,-83.7083282,319.700,17.000,7613,7
14774396,982.200012,20.480000,-0.082173,-0.058730,1.016484,-0.060976,0.000000,0.000000,0.000000,0.539000,2.009000,-43.848000,-31.625999,-92.147995,39.7285309,-83.7083282,319.700,17.000,7613,7
14774404,982.200012,20.480000,-0.081807,-0.061661,1.015385,-0.060976,0.000000,0.000000,0.000000,0.441000,2.009000,-43.806000,-31.625999,-92.063995,39.7285309,-83.7083282,319.700,17.000,7613,7
14774413,982.200012,20.480000,-0.081197,-0.062882,1.014530,-0.060976,0.000000,0.000000,0.000000,0.490000,2.058000,-43.973999,-31.793999,-92.274002,39.7285309,-83.7083282,319.700,17.000,7613,7
14774423,982.179993,20.480000,-0.080830,-0.062393,1.014408,-0.060976,0.000000,0.000000,0.000000,0.490000,2.107000,-43.806000,-31.751999,-92.063995,39.7285309,-83.7083282,319.700,17.000,7613,7
14774433,982.179993,20.480000,-0.081807,-0.059829,1.015507,-0.060976,-0.060976,0.121951,0.000000,0.441000,2.058000,-43.889999,-31.625999,-92.063995,39.7285309,-83.7083282,319.700,17.000,7613,7
14774443,982.179993,20.480000,-0.082906,-0.058120,1.015507,0.000000,-0.060976,0.121951,0.000000,0.441000,2.058000,-43.764000,-31.542000,-92.021996,39.7285309,-83.7083282,319.700,17.000,7613,7
14774453,982.179993,20.480000,-0.084005,-0.055800,1.015751,0.000000,-0.060976,0.121951,0.049000,0.490000,2.009000,-43.764000,-31.542000,-92.232002,39.7285309,-83.7083282,319.700,17.000,7613,7
14774463,982.219971,20.490000,-0.084493,-0.052991,1.015262,0.000000,-0.121951,0.000000,0.000000,0.490000,2.009000,-43.764000,-31.625999,-92.147995,39.7285309,-83.7083282,319.700,17.000,7613,7
14774473,982.219971,20.490000,-0.084737,-0.053358,1.016606,0.000000,-0.121951,-0.060976,0.000000,0.539000,2.058000,-43.931999,-31.584000,-92.021996,39.7285309,-83.7083282,319.700,2.000,7613,7
14774483,982.219971,20.490000,-0.084127,-0.053602,1.016239,0.000000,-0.060976,-0.121951,0.000000,0.392000,2.058000,-43.973999,-31.542000,-91.979996,39.7285309,-83.7083282,319.700,2.000,7613,7
14774493,982.219971,20.490000,-0.083272,-0.053602,1.015629,0.060976,-0.060976,-0.121951,0.049000,0.441000,2.107000,-44.015999,-31.373999,-92.147995,39.7285309,-83.7083282,319.700,2.000,7613,7
14774503,982.239990,20.490000,-0.083639,-0.054945,1.015995,-0.060976,-0.121951,-0.060976,0.049000,0.392000,2.156000,-43.764000,-31.625999,-92.021996,39.7285309,-83.7083282,319.700,2.000,7613,7
14774513,982.239990,20.490000,-0.083516,-0.056532,1.016484,-0.121951,-0.121951,0.121951,0.000000,0.490000,2.058000,-44.225998,-31.500000,-92.063995,39.7285309,-83.7083282,319.700,2.000,7613,7
14774523,982.239990,20.490000,-0.082540,-0.058120,1.015507,-0.121951,-0.121951,0.243902,0.000000,0.490000,2.058000,-43.931999,-31.625999,-92.063995,39.7285309,-83.7083282,319.700,2.000,7613,7
14774533,982.239990,20.490000,-0.082295,-0.059829,1.014042,-0.060976,-0.182927,0.365854,0.049000,0.441000,2.058000,-43.889999,-31.667999,-92.105995,39.7285309,-83.7083282,319.700,2.000,7613,7
14774543,982.229980,20.490000,-0.083028,-0.061416,1.014896,-0.060976,-0.182927,0.487805,0.000000,0.490000,2.058000,-43.764000,-31.667999,-91.979996,39.7285309,-83.7083282,319.700,2.000,7613,7
14774553,982.229980,20.490000,-0.083150,-0.061905,1.015507,-0.121951,-0.182927,0.548781,0.000000,0.490000,2.107000,-43.764000,-31.584000,-92.274002,39.7285309,-83.7083282,319.700,2.000,7613,7
14774563,982.229980,20.490000,-0.082784,-0.061416,1.015262,-0.060976,-0.243902,0.487805,0.000000,0.441000,2.058000,-43.806000,-31.542000,-92.105995,39.7285309,-83.7083282,319.700,2.000,7613,7
14774573,982.229980,20.490000,-0.081197,-0.061050,1.015018,0.000000,-0.243902,0.304878,0.000000,0.490000,2.107000,-43.806000,-31.584000,-92.063995,39.7285309,-83.7083282,319.700,2.000,7613,7
14774583,982.200012,20.480000,-0.079609,-0.060073,1.015140,0.000000,-0.182927,0.121951,0.000000,0.490000,2.107000,-43.931999,-31.542000,-92.105995,39.7285309,-83.7083282,319.700,2.000,7613,7
14774593,982.200012,20.480000,-0.078999,-0.058486,1.015751,0.060976,-0.243902,0.000000,0.000000,0.441000,2.107000,-44.015999,-31.625999,-92.232002,39.7285309,-83.7083282,319.600,2.000,7613,7
14774603,982.200012,20.480000,-0.079365,-0.057509,1.016484,0.000000,-0.243902,0.000000,0.000000,0.441000,2.107000,-43.848000,-31.458000,-92.190002,39.7285309,-83.7083282,319.600,2.000,7613,7
14774613,982.200012,20.480000,-0.080098,-0.056410,1.015995,-0.060976,-0.304878,0.060976,0.000000,0.441000,2.058000,-43.806000,-31.625999,-91.895996,39.7285309,-83.7083282,319.600,2.000,7613,7
14774623,982.219971,20.480000,-0.081197,-0.055189,1.015995,0.000000,-0.304878,0.243902,0.000000,0.490000,2.009000,-44.141998,-31.584000,-91.937996,39.7285309,-83.7083282,319.600,2.000,7613,7
14774633,982.219971,20.480000,-0.080586,-0.052015,1.015751,-0.060976,-0.304878,0.304878,0.000000,0.490000,2.058000,-43.722000,-31.667999,-92.063995,39.7285309,-83.7083282,319.600,2.000,7613,7
14774643,982.219971,20.480000,-0.081197,-0.050549,1.016117,-0.060976,-0.304878,0.365854,0.000000,0.392000,2.058000,-43.973999,-31.542000,-91.979996,39.7285309,-83.7083282,319.600,2.000,7613,7
14774653,982.219971,20.480000,-0.081441,-0.051160,1.014530,-0.060976,-0.304878,0.304878,0.049000,0.392000,2.058000,-43.848000,-31.751999,-92.063995,39.7285309,-83.7083282,319.600,2.000,7613,7
14774663,982.200012,20.480000,-0.081319,-0.051160,1.014164,-0.060976,-0.304878,0.121951,0.000000,0.392000,2.107000,-43.848000,-31.667999,-91.979996,39.7285309,-83.7083282,319.600,2.000,7613,7
14774673,982.200012,20.480000,-0.080952,-0.052869,1.015507,-0.060976,-0.304878,0.000000,0.098000,0.441000,2.156000,-43.764000,-31.584000,-92.021996,39.7285309,-83.7083282,319.600,2.000,7613,7
14774683,982.200012,20.480000,-0.080342,-0.055433,1.015995,-0.121951,-0.304878,0.000000,0.049000,0.441000,2.107000,-43.764000,-31.667999,-92.063995,39.7285309,-83.7083282,319.600,2.000,7613,7
14774693,982.200012,20.480000,-0.080098,-0.057631,1.015873,-0.182927,-0.365854,0.060976,0.000000,0.490000,2.058000,-43.889999,-31.584000,-92.063995,39.7285309,-83.7083282,319.600,2.000,7613,7
14774703,982.219971,20.480000,-0.078999,-0.060562,1.015751,-0.182927,-0.365854,0.243902,0.049000,0.392000,2.107000,-43.680000,-31.500000,-92.063995,39.7285309,-83.7083282,319.600,2.000,7613,7
14774713,982.219971,20.480000,-0.078388,-0.062271,1.016484,-0.182927,-0.365854,0.487805,0.049000,0.490000,2.156000,-43.848000,-31.584000,-92.063995,39.7285309,-83.7083282,319.600,2.000,7613,7
14774723,982.219971,20.480000,-0.078144,-0.063004,1.016117,-0.121951,-0.365854,0.609756,0.049000,0.441000,2.107000,-43.722000,-31.584000,-91.979996,39.7285309,-83.7083282,319.600,2.000,7613,7
14774733,982.219971,20.480000,-0.077900,-0.062393,1.015385,-0.121951,-0.365854,0.609756,0.098000,0.392000,2.107000,-43.638000,-31.542000,-92.190002,39.7285309,-83.7083282,319.600,2.000,7613,7
14774743,982.169983,20.480000,-0.076923,-0.059707,1.015751,-0.121951,-0.365854,0.548781,0.049000,0.441000,2.058000,-43.973999,-31.500000,-92.105995,39.7285309,-83.7083282,319.600,2.000,7613,7
14774753,982.169983,20.480000,-0.076313,-0.056654,1.015385,-0.121951,-0.365854,0.487805,0.049000,0.441000,2.107000,-43.973999,-31.500000,-91.853996,39.7285309,-83.7083282,319.600,2.000,7613,7
14774763,982.169983,20.480000,-0.076679,-0.054945,1.014530,-0.060976,-0.365854,0.365854,0.049000,0.441000,2.009000,-43.512001,-31.625999,-91.979996,39.7285309,-83.7083282,319.600,2.000,7613,7
14774773,982.169983,20.480000,-0.075336,-0.053602,1.015385,0.000000,-0.426829,0.243902,0.000000,0.441000,2.009000,-43.680000,-31.584000,-92.147995,39.7285309,-83.7083282,319.600,2.000,7613,7
14774783,982.190002,20.480000,-0.075336,-0.052137,1.015751,-0.060976,-0.365854,0.243902,0.000000,0.441000,2.009000,-43.638000,-31.836000,-91.979996,39.7285309,-83.7083282,319.600,2.000,7613,7
14774793,982.190002,20.480000,-0.075336,-0.052869,1.016361,-0.060976,-0.304878,0.243902,0.000000,0.441000,2.009000,-43.680000,-31.625999,-91.727997,39.7285309,-83.7083282,319.600,2.000,7613,7
14774811,982.190002,20.480000,-0.075824,-0.054335,1.016606,-0.121951,-0.304878,0.304878,0.000000,0.441000,2.009000,-43.848000,-31.500000,-91.895996,39.7285309,-83.7083282,319.600,2.000,7613,7
14774821,982.190002,20.480000,-0.074725,-0.054579,1.015873,-0.121951,-0.304878,0.365854,0.000000,0.490000,2.058000,-43.764000,-31.625999,-92.105995,39.7285309,-83.7083282,319.600,2.000,7613,7
14774829,982.229980,20.480000,-0.074725,-0.054579,1.015873,-0.121951,-0.304878,0.365854,0.000000,0.441000,2.058000,-43.554001,-31.625999,-91.895996,39.7285309,-83.7083282,319.600,2.000,7613,7
14774837,982.229980,20.480000,-0.074603,-0.055433,1.015262,-0.121951,-0.304878,0.365854,0.049000,0.490000,2.058000,-43.889999,-31.625999,-92.063995,39.7285309,-83.7083282,319.600,2.000,7613,7
14774845,982.229980,20.480000,-0.075214,-0.057998,1.014652,-0.121951,-0.304878,0.304878,0.049000,0.490000,2.058000,-43.680000,-31.836000,-92.063995,39.7285309,-83.7083282,319.600,2.000,7613,7
14774855,982.229980,20.480000,-0.074969,-0.059585,1.015018,-0.060976,-0.304878,0.243902,0.000000,0.441000,1.960000,-43.931999,-31.542000,-92.021996,39.7285309,-83.7083282,319.600,2.000,7613,7
14774864,982.169983,20.469999,-0.074481,-0.061294,1.015629,-0.060976,-0.304878,0.243902,0.000000,0.441000,1.960000,-43.848000,-31.584000,-92.063995,39.7285309,-83.7083282,319.600,2.000,7613,7
14774873,982.169983,20.469999,-0.074603,-0.062393,1.015873,-0.060976,-0.243902,0.243902,0.049000,0.490000,2.009000,-43.806000,-31.584000,-92.063995,39.7285309,-83.7083282,319.600,2.000,7613,7
14774883,982.169983,20.469999,-0.074725,-0.061538,1.015629,0.000000,-0.243902,0.243902,0.000000,0.490000,2.058000,-43.848000,-31.584000,-92.021996,39.7285309,-83.7083282,319.600,2.000,7613,7
14774893,982.169983,20.469999,-0.074481,-0.058730,1.016484,0.000000,-0.243902,0.243902,0.000000,0.490000,2.107000,-43.722000,-31.793999,-92.021996,39.7285309,-83.7083282,319.600,2.000,7613,7
14774903,982.219971,20.480000,-0.073871,-0.057021,1.016361,0.000000,-0.243902,0.304878,0.000000,0.392000,2.107000,-43.848000,-31.625999,-91.937996,39.7285309,-83.7083282,319.600,2.000,7613,7
14774913,982.219971,20.480000,-0.073626,-0.055800,1.016484,-0.060976,-0.182927,0.304878,0.000000,0.539000,2.009000,-43.806000,-31.751999,-91.895996,39.7285309,-83.7083282,319.600,2.000,7613,7
14774923,982.219971,20.480000,-0.073016,-0.054335,1.016972,-0.060976,-0.182927,0.304878,0.049000,0.490000,2.058000,-43.722000,-31.667999,-91.895996,39.7285309,-83.7083282,319.600,2.000,7613,7
14774933,982.219971,20.480000,-0.072283,-0.053358,1.016239,-0.060976,-0.243902,0.304878,0.000000,0.490000,2.058000,-43.806000,-31.667999,-91.853996,39.7285309,-83.7083282,319.600,2.000,7613,7
14774943,982.200012,20.480000,-0.072894,-0.053602,1.015507,-0.121951,-0.243902,0.304878,0.000000,0.490000,2.009000,-43.764000,-31.625999,-91.979996,39.7285309,-83.7083282,319.600,2.000,7613,7
14774953,982.200012,20.480000,-0.072283,-0.052137,1.015873,-0.121951,-0.121951,0.304878,0.000000,0.490000,2.107000,-43.973999,-31.625999,-92.274002,39.7285309,-83.7083282,319.600,2.000,7613,7
14774963,982.200012,20.480000,-0.072894,-0.052015,1.015140,-0.060976,-0.121951,0.182927,0.000000,0.490000,2.058000,-43.848000,-31.584000,-92.021996,39.7285309,-83.7083282,319.600,2.000,7613,7
14774973,982.200012,20.480000,-0.073260,-0.053480,1.015262,-0.121951,-0.121951,0.060976,0.049000,0.441000,2.009000,-43.806000,-31.878000,-92.190002,39.7285309,-83.7083282,319.600,2.000,7613,7
14774983,982.169983,20.469999,-0.074603,-0.055922,1.016117,-0.121951,-0.060976,0.000000,0.000000,0.490000,1.960000,-43.931999,-31.584000,-92.063995,39.7285309,-83.7083282,319.600,2.000,7613,7
14774993,982.169983,20.469999,-0.074115,-0.057875,1.016361,-0.121951,-0.060976,0.000000,0.049000,0.539000,2.107000,-43.931999,-31.625999,-92.147995,39.7285309,-83.7083282,319.600,2.000,7613,7
14775003,982.169983,20.469999,-0.071917,-0.059829,1.015751,-0.121951,-0.060976,0.000000,0.000000,0.441000,2.058000,-43.889999,-31.667999,-92.063995,39.7285309,-83.7083282,319.600,2.000,7613,7
14775013,982.169983,20.469999,-0.072527,-0.060562,1.016606,-0.121951,-0.121951,-0.060976,0.049000,0.441000,2.009000,-43.848000,-31.584000,-92.147995,39.7285309,-83.7083282,319.600,2.000,7613,7
14775023,982.229980,20.480000,-0.071917,-0.061416,1.016728,-0.060976,-0.060976,-0.060976,0.000000,0.441000,2.009000,-43.722000,-31.416000,-92.021996,39.7285309,-83.7083282,319.600,2.000,7613,7
14775033,982.229980,20.480000,-0.072650,-0.062515,1.016850,-0.060976,-0.060976,0.000000,0.049000,0.441000,2.058000,-43.848000,-31.584000,-92.021996,39.7285309,-83.7083282,319.600,2.000,7613,7
14775043,982.229980,20.480000,-0.073504,-0.062882,1.015629,-0.060976,-0.060976,0.060976,0.049000,0.441000,2.009000,-43.889999,-31.836000,-92.105995,39.7285309,-83.7083282,319.600,2.000,7613,7
14775053,982.229980,20.480000,-0.074115,-0.061050,1.015385,-0.060976,0.000000,0.121951,0.000000,0.441000,2.156000,-43.848000,-31.500000,-92.063995,39.7285309,-83.7083282,319.600,2.000,7613,7
14775063,982.200012,20.480000,-0.073138,-0.058120,1.015873,0.000000,0.000000,0.060976,0.000000,0.490000,2.058000,-43.931999,-31.500000,-91.979996,39.7285309,-83.7083282,319.600,2.000,7613,7
14775073,982.200012,20.480000,-0.073016,-0.054335,1.015629,0.000000,0.060976,0.000000,0.000000,0.441000,2.058000,-43.931999,-31.584000,-92.063995,39.7285309,-83.7083282,319.600,2.000,7613,7
14775083,982.200012,20.480000,-0.073260,-0.052869,1.014286,-0.060976,0.060976,0.000000,0.049000,0.490000,2.009000,-43.764000,-31.667999,-92.105995,39.7285309,-83.7083282,319.600,2.000,7613,7
14775093,982.200012,20.480000,-0.073260,-0.051893,1.015262,-0.060976,0.060976,-0.060976,0.000000,0.490000,2.058000,-43.848000,-31.584000,-92.063995,39.7285309,-83.7083282,319.600,2.000,7613,7
14775103,982.200012,20.469999,-0.073016,-0.051770,1.015751,-0.060976,0.060976,-0.121951,0.049000,0.441000,2.058000,-43.848000,-31.667999,-92.063995,39.7285309,-83.7083282,319.600,2.000,7613,7
14775113,982.200012,20.469999,-0.072650,-0.053724,1.016117,-0.121951,0.060976,-0.121951,0.000000,0.441000,2.058000,-43.889999,-31.667999,-91.895996,39.7285309,-83.7083282,319.600,2.000,7613,7
14775123,982.200012,20.469999,-0.073016,-0.056166,1.015018,-0.121951,0.060976,-0.060976,0.000000,0.441000,2.009000,-43.889999,-31.751999,-92.021996,39.7285309,-83.7083282,319.600,2.000,7613,7
14775133,982.200012,20.469999,-0.073138,-0.057021,1.015751,-0.121951,0.060976,0.000000,0.000000,0.490000,2.058000,-44.015999,-31.625999,-92.063995,39.7285309,-83.7083282,319.600,2.000,7613,7
14775143,982.219971,20.469999,-0.072894,-0.057753,1.016606,-0.121951,0.060976,0.000000,0.000000,0.490000,2.107000,-43.848000,-31.625999,-92.063995,39.7285309,-83.7083282,319.600,2.000,7613,7
14775153,982.219971,20.469999,-0.073871,-0.059341,1.015995,-0.121951,0.121951,0.000000,0.049000,0.441000,2.058000,-44.015999,-31.542000,-91.937996,39.7285309,-83.7083282,319.600,2.000,7613,7
14775163,982.219971,20.469999,-0.073871,-0.061294,1.015751,-0.060976,0.121951,-0.060976,0.000000,0.441000,2.009000,-43.806000,-31.500000,-92.021996,39.7285309,-83.7083282,319.600,2.000,7613,7
14775344,982.229980,20.469999,-0.077045,-0.061050,1.016117,-0.060976,0.304878,-0.365854,0.049000,0.392000,2.107000,-43.806000,-31.667999,-91.979996,39.7285309,-83.7083282,319.600,2.000,7613,7
14775354,982.229980,20.469999,-0.078510,-0.059707,1.015629,0.000000,0.304878,-0.304878,0.000000,0.441000,2.058000,-43.806000,-31.542000,-92.147995,39.7285309,-83.7083282,319.600,2.000,7613,7
14775362,982.229980,20.469999,-0.078877,-0.058852,1.015629,0.000000,0.243902,-0.304878,0.000000,0.441000,2.009000,-43.806000,-31.542000,-92.147995,39.7285309,-83.7083282,319.600,2.000,7613,7
14775369,982.229980,20.469999,-0.078877,-0.058852,1.015629,0.000000,0.243902,-0.304878,0.000000,0.441000,2.058000,-43.638000,-31.416000,-91.937996,39.7285309,-83.7083282,319.600,2.000,7613,7
14775377,982.130005,20.280001,-0.078632,-0.056532,1.015018,0.000000,0.304878,-0.304878,0.049000,0.441000,2.009000,-43.764000,-31.625999,-91.895996,39.7285309,-83.7083282,319.600,2.000,7613,7
14775385,982.130005,20.280001,-0.078144,-0.054212,1.014042,0.000000,0.304878,-0.365854,0.049000,0.441000,2.009000,-43.806000,-31.500000,-92.021996,39.7285309,-83.7083282,319.600,2.000,7613,7
14775393,982.130005,20.280001,-0.078510,-0.051526,1.013797,-0.060976,0.243902,-0.426829,0.000000,0.539000,2.058000,-43.806000,-31.500000,-91.937996,39.7285309,-83.7083282,319.600,2.000,7613,7
14775411,982.119995,20.309999,-0.079365,-0.050305,1.014408,0.000000,0.304878,-0.365854,0.049000,0.441000,2.058000,-43.764000,-31.542000,-91.895996,39.7285309,-83.7083282,319.600,2.000,7613,7
14775421,982.119995,20.309999,-0.080708,-0.053236,1.014896,-0.060976,0.304878,-0.365854,0.000000,0.490000,2.009000,-43.889999,-31.625999,-91.979996,39.7285309,-83.7083282,319.600,2.000,7613,7
14775429,982.119995,20.309999,-0.080708,-0.053236,1.014896,-0.060976,0.304878,-0.365854,0.000000,0.490000,2.058000,-43.889999,-31.625999,-91.979996,39.7285309,-83.7083282,319.600,2.000,7613,7
14775437,982.119995,20.309999,-0.081197,-0.055922,1.014530,-0.060976,0.304878,-0.304878,0.000000,0.490000,2.058000,-43.848000,-31.542000,-92.105995,39.7285309,-83.7083282,319.600,2.000,7613,7
14775446,982.169983,20.340000,-0.081807,-0.057753,1.015140,-0.060976,0.243902,-0.243902,0.000000,0.490000,2.058000,-44.015999,-31.373999,-91.937996,39.7285309,-83.7083282,319.600,2.000,7613,7
14775456,982.169983,20.340000,-0.082662,-0.058608,1.015629,-0.121951,0.304878,-0.243902,0.000000,0.441000,1.960000,-43.889999,-31.500000,-91.811996,39.7285309,-83.7083282,319.600,2.000,7613,7
14775464,982.169983,20.340000,-0.082295,-0.059463,1.015873,-0.121951,0.243902,-0.243902,0.000000,0.441000,2.107000,-43.764000,-31.416000,-92.021996,39.7285309,-83.7083282,319.600,2.000,7613,7
14775472,982.169983,20.340000,-0.082906,-0.059463,1.015018,-0.060976,0.243902,-0.304878,0.000000,0.441000,2.107000,-43.889999,-31.793999,-92.105995,39.7285385,-83.7083206,319.600,122.000,7613,7
14775481,982.140015,20.370001,-0.082906,-0.059463,1.015018,-0.060976,0.243902,-0.304878,0.000000,0.490000,2.107000,-43.764000,-31.373999,-92.147995,39.7285385,-83.7083206,319.600,122.000,7613,7
14775488,982.140015,20.370001,-0.082662,-0.060684,1.014896,0.000000,0.121951,-0.304878,0.049000,0.490000,2.058000,-43.764000,-31.373999,-92.147995,39.7285385,-83.7083206,319.600,122.000,7613,7
14775499,982.140015,20.370001,-0.083883,-0.061416,1.014652,0.000000,0.121951,-0.304878,0.000000,0.490000,2.058000,-43.889999,-31.416000,-91.895996,39.7285385,-83.7083206,319.600,122.000,7613,7
14775506,982.140015,20.370001,-0.084005,-0.060440,1.014530,-0.060976,0.121951,-0.304878,0.000000,0.490000,2.058000,-43.427998,-31.542000,-92.105995,39.7285385,-83.7083206,319.600,122.000,7613,7
14775515,982.190002,20.389999,-0.084737,-0.058364,1.015507,-0.060976,0.121951,-0.243902,0.000000,0.441000,1.960000,-43.722000,-31.667999,-92.063995,39.7285385,-83.7083206,319.600,122.000,7613,7
14775522,982.190002,20.389999,-0.084737,-0.056288,1.015018,-0.060976,0.121951,-0.182927,0.049000,0.441000,2.107000,-43.722000,-31.751999,-91.853996,39.7285385,-83.7083206,319.600,122.000,7613,7
14775531,982.190002,20.389999,-0.084737,-0.056288,1.015018,-0.060976,0.121951,-0.182927,0.049000,0.441000,2.107000,-43.806000,-31.667999,-92.021996,39.7285385,-83.7083206,319.600,122.000,7613,7
14775539,982.190002,20.389999,-0.084860,-0.053968,1.014652,0.000000,0.060976,-0.060976,0.000000,0.539000,2.058000,-43.889999,-31.667999,-92.063995,39.7285385,-83.7083206,319.600,122.000,7613,7
14775549,982.159973,20.410000,-0.085836,-0.051404,1.014652,0.000000,0.060976,0.000000,0.000000,0.441000,2.058000,-43.680000,-31.584000,-92.021996,39.7285385,-83.7083206,319.600,122.000,7613,7
14775557,982.159973,20.410000,-0.085348,-0.051526,1.014286,-0.060976,0.060976,0.000000,0.049000,0.490000,2.058000,-43.680000,-31.584000,-92.021996,39.7285385,-83.7083206,319.600,122.000,7613,7
14775566,982.159973,20.410000,-0.084493,-0.052503,1.014896,-0.121951,0.000000,0.060976,0.000000,0.441000,2.107000,-43.764000,-31.458000,-91.937996,39.7285385,-83.7083206,319.600,122.000,7613,7
14775574,982.159973,20.410000,-0.085104,-0.052625,1.015751,-0.121951,0.000000,0.121951,0.000000,0.490000,2.009000,-43.722000,-31.584000,-92.105995,39.7285385,-83.7083206,319.600,122.000,7613,7
14775582,982.159973,20.430000,-0.085470,-0.054090,1.015507,-0.121951,-0.060976,0.060976,0.000000,0.490000,2.058000,-43.889999,-31.584000,-92.147995,39.7285385,-83.7083206,320.700,122.000,7613,7
14775592,982.159973,20.430000,-0.085714,-0.055800,1.015507,-0.121951,-0.060976,0.000000,0.000000,0.441000,2.058000,-43.638000,-31.584000,-92.063995,39.7285385,-83.7083206,320.700,122.000,7613,7
14775601,982.159973,20.430000,-0.085714,-0.055800,1.015507,-0.121951,-0.060976,0.000000,0.000000,0.490000,2.009000,-43.764000,-31.584000,-92.063995,39.7285385,-83.7083206,320.700,122.000,7613,7
14775608,982.159973,20.430000,-0.085958,-0.058486,1.015018,-0.121951,-0.060976,0.000000,0.000000,0.441000,2.156000,-43.848000,-31.584000,-92.021996,39.7285385,-83.7083206,320.700,122.000,7613,7
14775617,982.210022,20.450001,-0.085958,-0.060562,1.014652,-0.121951,-0.121951,0.000000,0.000000,0.441000,2.156000,-43.848000,-31.584000,-92.021996,39.7285385,-83.7083206,320.700,122.000,7613,7
14775625,982.210022,20.450001,-0.084249,-0.062393,1.015629,-0.121951,-0.060976,0.060976,0.049000,0.392000,2.107000,-43.638000,-31.373999,-92.021996,39.7285385,-83.7083206,320.700,122.000,7613,7
14775633,982.210022,20.450001,-0.083516,-0.064103,1.015140,-0.121951,-0.121951,0.060976,0.000000,0.441000,2.107000,-43.764000,-31.751999,-92.105995,39.7285385,-83.7083206,320.700,122.000,7613,7
14775643,982.210022,20.450001,-0.084982,-0.063980,1.015018,-0.121951,-0.121951,0.121951,0.049000,0.441000,2.058000,-43.931999,-31.500000,-92.105995,39.7285385,-83.7083206,320.700,122.000,7613,7
14775652,982.169983,20.450001,-0.084982,-0.062027,1.015629,-0.060976,-0.121951,0.121951,0.000000,0.539000,2.009000,-43.722000,-31.667999,-92.063995,39.7285385,-83.7083206,320.700,122.000,7613,7
14775660,982.169983,20.450001,-0.084982,-0.062027,1.015629,-0.060976,-0.121951,0.121951,-0.049000,0.490000,2.107000,-43.889999,-31.751999,-92.063995,39.7285385,-83.7083206,320.700,122.000,7613,7
14775668,982.169983,20.450001,-0.085104,-0.059707,1.015018,-0.060976,-0.182927,0.121951,0.098000,0.392000,2.009000,-43.806000,-31.500000,-91.853996,39.7285385,-83.7083206,320.700,122.000,7613,7
14775676,982.169983,20.450001,-0.085226,-0.057509,1.015018,-0.060976,-0.243902,0.182927,0.049000,0.441000,2.058000,-43.764000,-31.584000,-91.895996,39.7285385,-83.7083206,320.700,122.000,7613,7
14775686,982.210022,20.469999,-0.085104,-0.055922,1.014896,0.000000,-0.243902,0.243902,0.000000,0.392000,2.107000,-43.931999,-31.500000,-91.853996,39.7285385,-83.7083206,320.700,122.000,7613,7
14775694,982.210022,20.469999,-0.084860,-0.054701,1.014164,0.000000,-0.243902,0.243902,0.000000,0.392000,2.107000,-43.931999,-31.500000,-91.853996,39.7285385,-83.7083206,320.700,122.000,7613,7
14775703,982.210022,20.469999,-0.084982,-0.053968,1.015140,0.000000,-0.304878,0.243902,0.049000,0.490000,2.156000,-43.722000,-31.500000,-92.021996,39.7285385,-83.7083206,320.700,122.000,7613,7
14775711,982.210022,20.469999,-0.084982,-0.053968,1.015140,0.000000,-0.304878,0.243902,0.000000,0.441000,2.009000,-43.889999,-31.584000,-92.021996,39.7285385,-83.7083206,320.700,122.000,7613,7
14775719,982.210022,20.469999,-0.084127,-0.054090,1.015018,-0.060976,-0.304878,0.243902,0.049000,0.392000,2.058000,-43.722000,-31.416000,-92.063995,39.7285385,-83.7083206,320.700,122.000,7613,7
14775727,982.210022,20.469999,-0.082906,-0.053358,1.014408,-0.121951,-0.304878,0.243902,0.000000,0.490000,2.009000,-43.764000,-31.542000,-92.147995,39.7285385,-83.7083206,320.700,122.000,7613,7
14775738,982.210022,20.469999,-0.083150,-0.053724,1.014896,-0.121951,-0.304878,0.304878,0.000000,0.392000,2.009000,-43.931999,-31.373999,-91.937996,39.7285385,-83.7083206,320.700,122.000,7613,7
14775746,982.210022,20.469999,-0.083272,-0.057143,1.014896,-0.121951,-0.365854,0.304878,-0.049000,0.441000,2.107000,-43.848000,-31.542000,-92.063995,39.7285385,-83.7083206,320.700,122.000,7613,7
14775754,982.219971,20.480000,-0.082662,-0.059341,1.014164,-0.060976,-0.365854,0.304878,0.049000,0.392000,2.009000,-43.848000,-31.542000,-92.063995,39.7285385,-83.7083206,320.700,122.000,7613,7
14775762,982.219971,20.480000,-0.083028,-0.061172,1.014530,-0.060976,-0.365854,0.365854,0.049000,0.392000,2.009000,-43.848000,-31.625999,-92.105995,39.7285385,-83.7083206,320.700,122.000,7613,7
14775770,982.219971,20.480000,-0.083028,-0.061172,1.014530,-0.060976,-0.365854,0.365854,0.049000,0.441000,2.009000,-43.973999,-31.542000,-92.105995,39.7285385,-83.7083206,320.700,122.000,7613,7
14775789,982.229980,20.490000,-0.083028,-0.063126,1.014896,-0.060976,-0.426829,0.426829,0.049000,0.490000,2.058000,-43.973999,-31.584000,-92.274002,39.7285385,-83.7083206,320.700,122.000,7613,7
14775798,982.229980,20.490000,-0.082051,-0.062271,1.015018,0.000000,-0.365854,0.365854,0.000000,0.539000,2.058000,-43.931999,-31.584000,-92.232002,39.7285385,-83.7083206,320.700,122.000,7613,7
14775807,982.229980,20.490000,-0.080342,-0.060562,1.015873,-0.060976,-0.365854,0.365854,0.000000,0.441000,2.107000,-43.931999,-31.793999,-91.937996,39.7285385,-83.7083206,320.700,122.000,7613,7
14775815,982.229980,20.490000,-0.079487,-0.059829,1.015995,0.000000,-0.426829,0.304878,0.000000,0.392000,2.107000,-43.931999,-31.625999,-92.105995,39.7285385,-83.7083206,320.700,122.000,7613,7
14775823,982.200012,20.490000,-0.080342,-0.058364,1.014896,0.000000,-0.487805,0.304878,0.000000,0.490000,2.058000,-43.931999,-31.625999,-92.105995,39.7285385,-83.7083206,320.700,122.000,7613,7
14775831,982.200012,20.490000,-0.080464,-0.055678,1.015140,-0.060976,-0.426829,0.365854,0.000000,0.441000,2.009000,-43.764000,-31.500000,-91.685997,39.7285385,-83.7083206,320.700,122.000,7613,7
14775841,982.200012,20.490000,-0.080464,-0.055678,1.015140,-0.060976,-0.426829,0.365854,0.049000,0.490000,2.009000,-43.806000,-31.751999,-92.147995,39.7285385,-83.7083206,320.700,122.000,7613,7
14775849,982.200012,20.490000,-0.080586,-0.053846,1.015140,-0.060976,-0.487805,0.426829,0.000000,0.490000,2.009000,-43.722000,-31.751999,-91.937996,39.7285385,-83.7083206,320.700,122.000,7613,7
14775858,982.210022,20.500000,-0.080708,-0.052869,1.015140,0.000000,-0.487805,0.426829,0.000000,0.490000,2.009000,-43.931999,-31.625999,-92.105995,39.7285385,-83.7083206,320.700,122.000,7613,7
14775866,982.210022,20.500000,-0.080098,-0.051404,1.015385,-0.060976,-0.426829,0.548781,0.049000,0.441000,2.009000,-43.806000,-31.584000,-92.147995,39.7285385,-83.7083206,320.700,122.000,7613,7
14775874,982.210022,20.500000,-0.079976,-0.051404,1.015751,-0.121951,-0.426829,0.609756,0.000000,0.441000,2.058000,-43.806000,-31.500000,-92.063995,39.7285385,-83.7083206,320.700,122.000,7613,7
14775884,982.210022,20.500000,-0.079121,-0.054090,1.015751,-0.121951,-0.487805,0.609756,0.000000,0.392000,2.058000,-43.848000,-31.542000,-92.021996,39.7285385,-83.7083206,320.700,122.000,7613,7
14775892,982.250000,20.500000,-0.079121,-0.055311,1.016484,-0.121951,-0.487805,0.609756,0.000000,0.490000,2.009000,-43.764000,-31.584000,-92.190002,39.7285385,-83.7083206,320.700,122.000,7613,7
14775900,982.250000,20.500000,-0.079121,-0.055311,1.016484,-0.121951,-0.487805,0.609756,0.000000,0.588000,2.058000,-43.764000,-31.584000,-92.190002,39.7285385,-83.7083206,320.700,122.000,7613,7
14775909,982.250000,20.500000,-0.078388,-0.056166,1.015995,-0.121951,-0.487805,0.548781,0.049000,0.490000,2.107000,-43.848000,-31.542000,-92.147995,39.7285385,-83.7083206,320.700,122.000,7613,7
14775916,982.250000,20.500000,-0.077656,-0.057875,1.015751,-0.060976,-0.487805,0.487805,0.049000,0.490000,2.107000,-43.764000,-31.878000,-91.979996,39.7285385,-83.7083206,320.700,122.000,7613,7
14775927,982.229980,20.510000,-0.077656,-0.059707,1.015751,-0.060976,-0.487805,0.426829,0.049000,0.539000,2.009000,-43.848000,-31.458000,-92.063995,39.7285385,-83.7083206,320.700,122.000,7613,7
14775935,982.229980,20.510000,-0.077289,-0.061783,1.014896,-0.060976,-0.487805,0.487805,0.049000,0.539000,2.009000,-43.764000,-31.667999,-92.190002,39.7285385,-83.7083206,320.700,122.000,7613,7
14775943,982.229980,20.510000,-0.075580,-0.063370,1.014896,0.000000,-0.548781,0.548781,0.000000,0.441000,2.058000,-43.889999,-31.458000,-92.063995,39.7285385,-83.7083206,320.700,122.000,7613,7
14775951,982.229980,20.510000,-0.075580,-0.062759,1.014652,0.000000,-0.487805,0.609756,0.000000,0.490000,2.058000,-43.722000,-31.625999,-92.063995,39.7285385,-83.7083206,320.700,122.000,7613,7
14775960,982.169983,20.510000,-0.075580,-0.062759,1.014652,0.000000,-0.487805,0.609756,0.049000,0.490000,2.009000,-43.722000,-31.625999,-92.063995,39.7285385,-83.7083206,320.700,122.000,7613,7
14775968,982.169983,20.510000,-0.075336,-0.060684,1.015140,-0.060976,-0.487805,0.670732,0.000000,0.441000,2.058000,-43.680000,-31.584000,-92.063995,39.7285385,-83.7083206,320.700,122.000,7613,7
14775978,982.169983,20.510000,-0.074603,-0.058486,1.015629,-0.060976,-0.487805,0.670732,0.000000,0.392000,2.107000,-43.722000,-31.584000,-92.105995,39.7285385,-83.7083206,320.700,122.000,7613,7
14775986,982.169983,20.510000,-0.073748,-0.055433,1.015873,-0.060976,-0.426829,0.670732,0.098000,0.490000,2.058000,-43.848000,-31.584000,-92.021996,39.7285385,-83.7083206,320.700,122.000,7613,7
14775994,982.219971,20.510000,-0.073504,-0.053602,1.015995,0.000000,-0.426829,0.609756,0.000000,0.441000,2.107000,-43.848000,-31.625999,-92.021996,39.7285385,-83.7083206,320.700,122.000,7613,7
14776002,982.219971,20.510000,-0.073016,-0.052991,1.014896,0.000000,-0.487805,0.548781,0.000000,0.441000,2.107000,-43.806000,-31.542000,-92.105995,39.7285385,-83.7083206,320.700,122.000,7613,7
14776010,982.219971,20.510000,-0.073016,-0.052991,1.014896,0.000000,-0.487805,0.548781,0.049000,0.392000,2.058000,-43.764000,-31.625999,-92.063995,39.7285385,-83.7083206,320.700,122.000,7613,7
14776019,982.219971,20.510000,-0.073382,-0.052625,1.015629,0.000000,-0.426829,0.365854,0.049000,0.441000,2.009000,-43.806000,-31.625999,-91.895996,39.7285385,-83.7083206,320.700,122.000,7613,7
14776027,982.219971,20.520000,-0.073504,-0.053358,1.016484,-0.060976,-0.426829,0.304878,0.049000,0.539000,2.009000,-43.806000,-31.625999,-91.895996,39.7285385,-83.7083206,320.700,122.000,7613,7
14776035,982.219971,20.520000,-0.072772,-0.053846,1.015262,-0.121951,-0.426829,0.243902,-0.049000,0.441000,2.107000,-43.680000,-31.625999,-91.979996,39.7285385,-83.7083206,320.700,122.000,7613,7
14776043,982.219971,20.520000,-0.072650,-0.054090,1.015751,-0.121951,-0.365854,0.243902,0.098000,0.392000,2.107000,-43.722000,-31.667999,-92.105995,39.7285385,-83.7083206,320.700,122.000,7613,7
14776050,982.219971,20.520000,-0.072650,-0.054090,1.015751,-0.121951,-0.365854,0.243902,0.098000,0.392000,2.107000,-43.806000,-31.584000,-92.021996,39.7285385,-83.7083206,320.700,122.000,7613,7
14776058,982.229980,20.520000,-0.072039,-0.056654,1.015507,-0.121951,-0.304878,0.304878,0.049000,0.441000,2.058000,-43.806000,-31.584000,-92.021996,39.7285385,-83.7083206,320.700,122.000,7613,7
14776068,982.229980,20.520000,-0.071306,-0.059219,1.015507,-0.121951,-0.304878,0.365854,0.049000,0.490000,1.960000,-43.512001,-31.920000,-91.937996,39.7285385,-83.7083206,320.700,122.000,7613,7
14776076,982.229980,20.520000,-0.070452,-0.061294,1.015140,-0.060976,-0.365854,0.426829,0.000000,0.490000,2.058000,-43.764000,-31.751999,-91.853996,39.7285385,-83.7083206,320.700,122.000,7613,7
14776083,982.229980,20.520000,-0.070940,-0.062637,1.016972,-0.121951,-0.365854,0.426829,0.049000,0.490000,2.107000,-43.889999,-31.625999,-92.105995,39.7285385,-83.7083206,320.700,122.000,7613,7
14776091,982.219971,20.530001,-0.070940,-0.062637,1.016972,-0.121951,-0.365854,0.426829,0.000000,0.441000,2.058000,-43.931999,-31.667999,-91.979996,39.7285385,-83.7083206,320.700,122.000,7613,7
14776099,982.219971,20.530001,-0.071673,-0.062027,1.017338,-0.060976,-0.365854,0.365854,0.000000,0.441000,2.058000,-43.848000,-31.584000,-92.021996,39.7285385,-83.7083206,320.700,122.000,7613,7
14776109,982.219971,20.530001,-0.071062,-0.060684,1.017094,-0.060976,-0.243902,0.304878,0.049000,0.441000,2.009000,-43.889999,-31.584000,-92.105995,39.7285385,-83.7083206,320.700,122.000,7613,7
14776117,982.219971,20.530001,-0.071673,-0.058242,1.016117,-0.060976,-0.243902,0.304878,0.000000,0.490000,2.058000,-43.889999,-31.584000,-92.105995,39.7285385,-83.7083206,320.700,122.000,7613,7
14776125,982.219971,20.530001,-0.071306,-0.055678,1.016484,0.000000,-0.243902,0.243902,0.000000,0.441000,2.058000,-43.596001,-31.584000,-92.105995,39.7285385,-83.7083206,320.700,122.000,7613,7
14776132,982.219971,20.530001,-0.070330,-0.053846,1.015995,0.000000,-0.243902,0.182927,0.000000,0.490000,2.107000,-43.806000,-31.667999,-92.063995,39.7285385,-83.7083206,320.700,122.000,7613,7
14776140,982.219971,20.530001,-0.070330,-0.053846,1.015995,0.000000,-0.243902,0.182927,0.000000,0.441000,2.058000,-43.889999,-31.542000,-92.147995,39.7285385,-83.7083206,320.700,122.000,7613,7
14776148,982.219971,20.530001,-0.070085,-0.052869,1.014774,-0.060976,-0.121951,0.182927,0.000000,0.441000,2.058000,-43.889999,-31.542000,-92.190002,39.7285385,-83.7083206,320.700,122.000,7613,7
14776166,982.219971,20.530001,-0.069353,-0.050061,1.015995,-0.060976,-0.121951,0.182927,0.049000,0.490000,2.009000,-43.848000,-31.458000,-92.147995,39.7285385,-83.7083206,320.700,122.000,7613,7
14776175,982.219971,20.530001,-0.069597,-0.049939,1.016117,-0.121951,-0.182927,0.182927,0.049000,0.441000,2.009000,-43.889999,-31.751999,-92.358002,39.7285385,-83.7083206,320.700,122.000,7613,7
14776183,982.219971,20.530001,-0.069597,-0.051282,1.016361,-0.121951,-0.182927,0.121951,0.000000,0.490000,2.009000,-43.931999,-31.500000,-92.736000,39.7285385,-83.7083206,320.700,122.000,7613,7
14776190,982.219971,20.530001,-0.069597,-0.051282,1.016361,-0.121951,-0.182927,0.121951,0.049000,0.441000,2.058000,-43.806000,-31.836000,-92.063995,39.7285385,-83.7083206,320.700,122.000,7613,7
14776198,982.179993,20.520000,-0.068498,-0.053236,1.016117,-0.121951,-0.182927,0.121951,0.000000,0.490000,2.058000,-43.889999,-31.584000,-91.979996,39.7285385,-83.7083206,320.700,122.000,7613,7
14776208,982.179993,20.520000,-0.068620,-0.055556,1.016606,-0.182927,-0.060976,0.060976,0.049000,0.490000,2.009000,-43.554001,-31.542000,-91.979996,39.7285385,-83.7083206,320.700,122.000,7613,7
